{
"type": "FeatureCollection",
"name": "文学数据库2",
"crs": { "type": "name", "properties": { "name": "urn:ogc:def:crs:OGC:1.3:CRS84" } },
"features": [
{ "type": "Feature", "properties": { "id": "B001904684", "name": "高二适纪念馆", "价格": 0, "分类": "文学相关", "X": 118.6151774, "Y": 32.05633668, "type": "景点", "address": "雨山路48号", "city": "南京市", "aname": "浦口区", "rating": 5.0, "density": 0.25641349, "photo": null }, "geometry": { "type": "Point", "coordinates": [ 118.615177, 32.056337 ] } },
{ "type": "Feature", "properties": { "id": "B0FFH62KNA", "name": "古鸡鸣寺", "价格": 15, "分类": "历史故事;古建筑;热门景点", "X": 118.7900511, "Y": 32.06312749, "type": "景点", "address": "鸡鸣寺路1号(鸡鸣寺地铁站5号口步行410米)", "city": "南京市", "aname": "玄武区", "rating": 5.0, "density": 0.876270354, "photo": "http:\/\/store.is.autonavi.com\/query_pic?id=st653d2760-3b45-47e5-ad2c-7a027aea5997&user=search&operate=original" }, "geometry": { "type": "Point", "coordinates": [ 118.790051, 32.063127 ] } },
{ "type": "Feature", "properties": { "id": "B001907TGR", "name": "南京博物院", "价格": 0, "分类": "博物展览;历史故事;古建筑;热门景点", "X": 118.8199269, "Y": 32.04291341, "type": "博物馆", "address": "中山东路321号", "city": "南京市", "aname": "玄武区", "rating": 5.0, "density": 0.697943985, "photo": "http:\/\/store.is.autonavi.com\/showpic\/6d9679442d9f514b78d55213b43d9417" }, "geometry": { "type": "Point", "coordinates": [ 118.819927, 32.042913 ] } },
{ "type": "Feature", "properties": { "id": "B00191437W", "name": "南京夫子庙-秦淮风光带", "价格": 0, "分类": "历史故事;古建筑;文学相关;热门景点", "X": 118.7773204, "Y": 32.01926177, "type": "景点", "address": "平江府路80-1", "city": "南京市", "aname": "秦淮区", "rating": 4.9, "density": 1.547768712, "photo": "http:\/\/store.is.autonavi.com\/showpic\/9e64a8689c6b079d5f0b86a354274188" }, "geometry": { "type": "Point", "coordinates": [ 118.77732, 32.019262 ] } },
{ "type": "Feature", "properties": { "id": "B00190BSET", "name": "秦淮河", "价格": 0, "分类": "历史故事;自然风光;热门景点", "X": 118.7863634, "Y": 32.02285766, "type": "景点", "address": "钞库街", "city": "南京市", "aname": "秦淮区", "rating": 4.9, "density": 1.337884426, "photo": "http:\/\/store.is.autonavi.com\/showpic\/2b5070db544281e34500647f99447487" }, "geometry": { "type": "Point", "coordinates": [ 118.786363, 32.022858 ] } },
{ "type": "Feature", "properties": { "id": "B001908F04", "name": "南京牛首山文化旅游区", "价格": 98, "分类": "历史故事;自然风光;热门景点", "X": 118.7389417, "Y": 31.90531386, "type": "景点", "address": "宁丹大道18号", "city": "南京市", "aname": "江宁区", "rating": 4.9, "density": 0.162689149, "photo": "http:\/\/store.is.autonavi.com\/showpic\/f1496728ce77c278f387d2a29c3c920e" }, "geometry": { "type": "Point", "coordinates": [ 118.738942, 31.905314 ] } },
{ "type": "Feature", "properties": { "id": "B0019169OY", "name": "愚园（胡家花园）", "价格": 18, "分类": "历史故事;古建筑;文学相关;自然风光", "X": 118.7683523, "Y": 32.01800112, "type": "景点", "address": "鸣羊街胡家花园1号", "city": "南京市", "aname": "秦淮区", "rating": 4.9, "density": 1.268390775, "photo": "http:\/\/store.is.autonavi.com\/showpic\/915f0b17223f9cf5ceac2316d689708c" }, "geometry": { "type": "Point", "coordinates": [ 118.768352, 32.018001 ] } },
{ "type": "Feature", "properties": { "id": "B0FFFFKG55", "name": "明孝陵景区", "价格": 70, "分类": "历史故事;古建筑;热门景点", "X": 118.8353576, "Y": 32.05406885, "type": "景点", "address": "石象路7号", "city": "南京市", "aname": "玄武区", "rating": 4.9, "density": 0.831602395, "photo": "http:\/\/store.is.autonavi.com\/showpic\/54b412f617d083a34fb1e9849858f082" }, "geometry": { "type": "Point", "coordinates": [ 118.835358, 32.054069 ] } },
{ "type": "Feature", "properties": { "id": "B00190BBCW", "name": "南京雨花台风景区", "价格": 0, "分类": "历史故事;红色文化", "X": 118.7765173, "Y": 31.99992655, "type": "景点", "address": "雨花路215号", "city": "南京市", "aname": "雨花台区", "rating": 4.9, "density": 0.386235923, "photo": "http:\/\/store.is.autonavi.com\/showpic\/a0e4abd64c5e3fad90040b33ff17d602" }, "geometry": { "type": "Point", "coordinates": [ 118.776517, 31.999927 ] } },
{ "type": "Feature", "properties": { "id": "B0FFHVEECG", "name": "中山陵景区", "价格": 0, "分类": "历史故事;古建筑;热门景点", "X": 118.8490191, "Y": 32.05667601, "type": "景点", "address": "石象路7号", "city": "南京市", "aname": "玄武区", "rating": 4.9, "density": 0.722590327, "photo": "http:\/\/store.is.autonavi.com\/showpic\/46bf800a21c42453ff756fc2b77c710f" }, "geometry": { "type": "Point", "coordinates": [ 118.849019, 32.056676 ] } },
{ "type": "Feature", "properties": { "id": "B00190BMRC", "name": "总统府", "价格": 35, "分类": "历史故事;古建筑", "X": 118.792208, "Y": 32.04629373, "type": "景点", "address": "长江路292号", "city": "南京市", "aname": "玄武区", "rating": 4.9, "density": 1.352919221, "photo": "http:\/\/aos-cdn-image.amap.com\/sns\/ugccomment\/21acde57-d540-4737-974a-11b6c69d23de.jpg" }, "geometry": { "type": "Point", "coordinates": [ 118.792208, 32.046294 ] } },
{ "type": "Feature", "properties": { "id": "B001909G6V", "name": "南京音乐台", "价格": 10, "分类": "热门景点", "X": 118.8503065, "Y": 32.05726633, "type": "景点", "address": "石象路7号", "city": "南京市", "aname": "玄武区", "rating": 4.9, "density": 0.680755675, "photo": "http:\/\/store.is.autonavi.com\/showpic\/10847ae77fa0b74de2dc432d3e879b4c" }, "geometry": { "type": "Point", "coordinates": [ 118.850307, 32.057266 ] } },
{ "type": "Feature", "properties": { "id": "B00190536A", "name": "瞻园", "价格": 30, "分类": "历史故事;古建筑;自然风光", "X": 118.7799581, "Y": 32.02307932, "type": "景点", "address": "瞻园路128号", "city": "南京市", "aname": "秦淮区", "rating": 4.9, "density": 1.609728098, "photo": "http:\/\/store.is.autonavi.com\/showpic\/3a5a2d6f6ad2612b8c9f42587d61b56f" }, "geometry": { "type": "Point", "coordinates": [ 118.779958, 32.023079 ] } },
{ "type": "Feature", "properties": { "id": "B00190516B", "name": "紫霞湖公园", "价格": 0, "分类": "自然风光", "X": 118.838828, "Y": 32.06375141, "type": "景点", "address": "中山门外石象路7号中山陵园风景区明孝陵景区东北", "city": "南京市", "aname": "玄武区", "rating": 4.9, "density": 0.519001126, "photo": "http:\/\/store.is.autonavi.com\/showpic\/417e453efdae030ba62e55214d046fad" }, "geometry": { "type": "Point", "coordinates": [ 118.838828, 32.063751 ] } },
{ "type": "Feature", "properties": { "id": "B0FFKNET9I", "name": "莫愁湖公园", "价格": 0, "分类": "自然风光;热门景点", "X": 118.7557815, "Y": 32.03849229, "type": "景点", "address": "南京市建邺区水西门大街132号莫愁湖", "city": "南京市", "aname": "建邺区", "rating": 4.9, "density": 0.818649173, "photo": "http:\/\/store.is.autonavi.com\/showpic\/459c994645033454f6ca6f0aff18bf93" }, "geometry": { "type": "Point", "coordinates": [ 118.755781, 32.038492 ] } },
{ "type": "Feature", "properties": { "id": "B0FFKNET9J", "name": "栖霞山", "价格": 40, "分类": "自然风光;历史故事;古建筑;热门景点", "X": 118.9626277, "Y": 32.15760556, "type": "景点", "address": "南京市栖霞区栖霞街88号", "city": "南京市", "aname": "栖霞区", "rating": 4.9, "density": 0.128551751, "photo": "http:\/\/store.is.autonavi.com\/showpic\/3ad9c403bfc590dbad1b718b62ce97b3" }, "geometry": { "type": "Point", "coordinates": [ 118.962628, 32.157606 ] } },
{ "type": "Feature", "properties": { "id": "B00190BS7S", "name": "明孝陵博物馆", "价格": 0, "分类": "博物展览;历史故事", "X": 118.8383986, "Y": 32.04723796, "type": "博物馆", "address": "四方城1号", "city": "南京市", "aname": "玄武区", "rating": 4.9, "density": 0.804506779, "photo": "http:\/\/store.is.autonavi.com\/showpic\/c8ec71257ec7dc3938f39c664974984b" }, "geometry": { "type": "Point", "coordinates": [ 118.838399, 32.047238 ] } },
{ "type": "Feature", "properties": { "id": "B001905YQ1", "name": "先锋书店", "价格": 0, "分类": "当代文创;热门景点", "X": 118.7682991, "Y": 32.05287897, "type": "书店", "address": "广州路173号五台山体育馆地下车库(古南都饭店对面)", "city": "南京市", "aname": "鼓楼区", "rating": 4.9, "density": 0.935611069, "photo": "http:\/\/store.is.autonavi.com\/showpic\/63b9a0ce56fb77fc8c7219db7b8facbd" }, "geometry": { "type": "Point", "coordinates": [ 118.768299, 32.052879 ] } },
{ "type": "Feature", "properties": { "id": "B0I6158LFF", "name": "锦创书城", "价格": 0, "分类": "当代文创", "X": 118.8011691, "Y": 32.04789262, "type": "书店", "address": "珠江路锦创数字产业园A座1-4层", "city": "南京市", "aname": "玄武区", "rating": 4.9, "density": 1.319648027, "photo": "http:\/\/store.is.autonavi.com\/showpic\/4717de3a18e633ae867b355a52759729" }, "geometry": { "type": "Point", "coordinates": [ 118.801169, 32.047893 ] } },
{ "type": "Feature", "properties": { "id": "B00190AMPT", "name": "朝天宫", "价格": 25, "分类": "博物展览;历史故事;古建筑", "X": 118.770104, "Y": 32.03638353, "type": "景点", "address": "王府大街朝天宫4号", "city": "南京市", "aname": "秦淮区", "rating": 4.8, "density": 1.199898481, "photo": "http:\/\/store.is.autonavi.com\/showpic\/b9b266379038bc23648612a007469ce0" }, "geometry": { "type": "Point", "coordinates": [ 118.770104, 32.036384 ] } },
{ "type": "Feature", "properties": { "id": "B0FFGXSZUH", "name": "南京市无想山景区", "价格": 0, "分类": "历史故事;自然风光", "X": 119.0422463, "Y": 31.58024837, "type": "景点", "address": "无付线与无想山大道交叉口东南", "city": "南京市", "aname": "溧水区", "rating": 4.8, "density": 0.128379747, "photo": "http:\/\/store.is.autonavi.com\/showpic\/ac74aa99cc07c8c0f0c570fc5355fb0e" }, "geometry": { "type": "Point", "coordinates": [ 119.042246, 31.580248 ] } },
{ "type": "Feature", "properties": { "id": "B0FFHDXY5Z", "name": "灵谷景区", "价格": 35, "分类": "历史故事;古建筑;自然风光", "X": 118.8613358, "Y": 32.05847503, "type": "景点", "address": "石象路7号-3", "city": "南京市", "aname": "玄武区", "rating": 4.8, "density": 0.354195118, "photo": "http:\/\/store.is.autonavi.com\/showpic\/0a8043d98b2b99284a340a89807ba493" }, "geometry": { "type": "Point", "coordinates": [ 118.861336, 32.058475 ] } },
{ "type": "Feature", "properties": { "id": "B0FFFS03HE", "name": "南京十朝文化园", "价格": 0, "分类": "历史故事", "X": 118.8375278, "Y": 32.04713133, "type": "景点", "address": "四方城1号", "city": "南京市", "aname": "玄武区", "rating": 4.8, "density": 0.777323306, "photo": "http:\/\/store.is.autonavi.com\/showpic\/3456ca5afd4e45de6a492b1745588e22" }, "geometry": { "type": "Point", "coordinates": [ 118.837528, 32.047131 ] } },
{ "type": "Feature", "properties": { "id": "B00190AZ4L", "name": "毗卢寺", "价格": 20, "分类": "历史故事;古建筑", "X": 118.798161, "Y": 32.04494922, "type": "景点", "address": "汉府街4号(西安门地铁站2号口步行370米)", "city": "南京市", "aname": "玄武区", "rating": 4.8, "density": 1.343278885, "photo": "http:\/\/store.is.autonavi.com\/showpic\/d912137380adcf85c67e6bd6a79fdbd5" }, "geometry": { "type": "Point", "coordinates": [ 118.798161, 32.044949 ] } },
{ "type": "Feature", "properties": { "id": "B0FFFA2WGT", "name": "中国科举博物馆", "价格": 50, "分类": "博物展览;历史故事;古建筑;热门景点", "X": 118.7854711, "Y": 32.02284655, "type": "博物馆", "address": "贡院街95号(夫子庙地铁站2号口步行340米)", "city": "南京市", "aname": "秦淮区", "rating": 4.8, "density": 1.337884426, "photo": "http:\/\/store.is.autonavi.com\/showpic\/1914df43bae975343b93f07bb7a01934" }, "geometry": { "type": "Point", "coordinates": [ 118.785471, 32.022847 ] } },
{ "type": "Feature", "properties": { "id": "B0H3XR19VD", "name": "南京城墙博物馆", "价格": 30, "分类": "博物展览;历史故事", "X": 118.7776993, "Y": 32.01430901, "type": "博物馆", "address": "新民坊路边营1号", "city": "南京市", "aname": "秦淮区", "rating": 4.8, "density": 1.326539516, "photo": "http:\/\/store.is.autonavi.com\/showpic\/bec5ec9b9e2f35ab88eb9c21375d95b6" }, "geometry": { "type": "Point", "coordinates": [ 118.777699, 32.014309 ] } },
{ "type": "Feature", "properties": { "id": "B0019135C5", "name": "六朝博物馆", "价格": 30, "分类": "博物展览;历史故事", "X": 118.7939369, "Y": 32.04490788, "type": "博物馆", "address": "长江路302号", "city": "南京市", "aname": "玄武区", "rating": 4.8, "density": 1.358082771, "photo": "http:\/\/store.is.autonavi.com\/showpic\/de50004f8b367977e4d6a3543890a578" }, "geometry": { "type": "Point", "coordinates": [ 118.793937, 32.044908 ] } },
{ "type": "Feature", "properties": { "id": "B0FFI7WD15", "name": "石臼湖", "价格": 0, "分类": "自然风光;热门景点", "X": 118.8839362, "Y": 31.42232205, "type": "景点", "address": "团固线与宁高公路交叉口西420米", "city": "南京市", "aname": "高淳区", "rating": 4.7, "density": 0.128575489, "photo": "http:\/\/store.is.autonavi.com\/showpic\/64a33103764501e18289e68d72f576ec" }, "geometry": { "type": "Point", "coordinates": [ 118.883936, 31.422322 ] } },
{ "type": "Feature", "properties": { "id": "B0H017SB12", "name": "南京石头城遗址公园", "价格": 0, "分类": "历史故事;文学相关;自然风光", "X": 118.7565349, "Y": 32.04744847, "type": "景点", "address": "虎踞路87号(近虎踞南路)", "city": "南京市", "aname": "鼓楼区", "rating": 4.7, "density": 0.868732929, "photo": "http:\/\/store.is.autonavi.com\/showpic\/411adde9805fa0da2b35615a65ac438d" }, "geometry": { "type": "Point", "coordinates": [ 118.756535, 32.047448 ] } },
{ "type": "Feature", "properties": { "id": "B0019098HK", "name": "方山风景区", "价格": 0, "分类": "自然风光", "X": 118.8733232, "Y": 31.89953342, "type": "景点", "address": "科学园", "city": "南京市", "aname": "江宁区", "rating": 4.7, "density": 0.128651232, "photo": "http:\/\/store.is.autonavi.com\/showpic\/314d1794e8f1c468999c1d4c8b3c3993" }, "geometry": { "type": "Point", "coordinates": [ 118.873323, 31.899533 ] } },
{ "type": "Feature", "properties": { "id": "B0FFGYKCUJ", "name": "大报恩寺遗址景区", "价格": 90, "分类": "历史故事;古建筑", "X": 118.7778037, "Y": 32.0112444, "type": "景点", "address": "中华门外雨花路1号", "city": "南京市", "aname": "秦淮区", "rating": 4.7, "density": 1.136123657, "photo": "http:\/\/store.is.autonavi.com\/showpic\/263e131792d95c676bae3ee158dc67f9" }, "geometry": { "type": "Point", "coordinates": [ 118.777804, 32.011244 ] } },
{ "type": "Feature", "properties": { "id": "B0FFGT9T14", "name": "颐和路历史文化街区11片区", "价格": 0, "分类": "古建筑", "X": 118.7644347, "Y": 32.06255281, "type": "景点", "address": "宁海路(云南路地铁站1号口步行450米)", "city": "南京市", "aname": "鼓楼区", "rating": 4.7, "density": 0.613041639, "photo": "http:\/\/store.is.autonavi.com\/showpic\/ad7aafcfdb17f45e0bf905798ab3b7a1" }, "geometry": { "type": "Point", "coordinates": [ 118.764435, 32.062553 ] } },
{ "type": "Feature", "properties": { "id": "B0FFKNET9K", "name": "玄武湖公园", "价格": 0, "分类": "自然风光;热门景点", "X": 118.7943742, "Y": 32.07100128, "type": "景点", "address": "南京市玄武区玄武门路1号", "city": "南京市", "aname": "玄武区", "rating": 4.7, "density": 0.604260087, "photo": "http:\/\/store.is.autonavi.com\/showpic\/bd8bedfda24601f771b962adefe1dc93" }, "geometry": { "type": "Point", "coordinates": [ 118.794374, 32.071001 ] } },
{ "type": "Feature", "properties": { "id": "B00190B8ZD", "name": "南京市博物馆", "价格": 25, "分类": "博物展览;历史故事;古建筑", "X": 118.7702341, "Y": 32.03659167, "type": "博物馆", "address": "朝天宫4号", "city": "南京市", "aname": "秦淮区", "rating": 4.7, "density": 1.199898481, "photo": "http:\/\/store.is.autonavi.com\/showpic\/39703c578c378582d4de6ea2f334445c" }, "geometry": { "type": "Point", "coordinates": [ 118.770234, 32.036592 ] } },
{ "type": "Feature", "properties": { "id": "B001911KPA", "name": "江宁织造博物馆", "价格": 30, "分类": "博物展览;古建筑;历史故事;文学相关", "X": 118.788876, "Y": 32.04419672, "type": "博物馆", "address": "长江路123号", "city": "南京市", "aname": "玄武区", "rating": 4.7, "density": 1.333042145, "photo": "http:\/\/store.is.autonavi.com\/showpic\/ccff40b655e7c216e2d0ee4f7f588ae2" }, "geometry": { "type": "Point", "coordinates": [ 118.788876, 32.044197 ] } },
{ "type": "Feature", "properties": { "id": "B00190BC3W", "name": "南京国际展览中心", "价格": 0, "分类": "博物展览;当代文创", "X": 118.8038705, "Y": 32.07665035, "type": "展览馆", "address": "龙蟠路88号", "city": "南京市", "aname": "玄武区", "rating": 4.7, "density": 0.314345658, "photo": "http:\/\/store.is.autonavi.com\/showpic\/29524d2d19d066c858f7acc64bdd2fad" }, "geometry": { "type": "Point", "coordinates": [ 118.803871, 32.07665 ] } },
{ "type": "Feature", "properties": { "id": "B001911ONN", "name": "南京十朝历史文化陈列馆", "价格": 0, "分类": "博物展览;历史故事", "X": 118.8380539, "Y": 32.04661819, "type": "展览馆", "address": "四方城1号", "city": "南京市", "aname": "玄武区", "rating": 4.7, "density": 0.777323306, "photo": "http:\/\/store.is.autonavi.com\/showpic\/2d65633c33628c90f3981daefe2caaf9" }, "geometry": { "type": "Point", "coordinates": [ 118.838054, 32.046618 ] } },
{ "type": "Feature", "properties": { "id": "B0FFFFLINT", "name": "明城墙台城景区", "价格": 30, "分类": "历史故事;古建筑", "X": 118.7913319, "Y": 32.06458256, "type": "景点", "address": "西家大塘25号附近", "city": "南京市", "aname": "玄武区", "rating": 4.6, "density": 0.807436764, "photo": "http:\/\/store.is.autonavi.com\/showpic\/d782adea43c503bae505efb7916e9805" }, "geometry": { "type": "Point", "coordinates": [ 118.791332, 32.064583 ] } },
{ "type": "Feature", "properties": { "id": "B0FFFZSD9H", "name": "赏心亭", "价格": 0, "分类": "历史故事;古建筑;文学相关;自然风光", "X": 118.7635491, "Y": 32.03068523, "type": "景点", "address": "凤台路8号-1正西方向40米", "city": "南京市", "aname": "秦淮区", "rating": 4.6, "density": 1.079152584, "photo": "http:\/\/store.is.autonavi.com\/showpic\/e6b2b9a19dfa5f76a923f928e6631a7a" }, "geometry": { "type": "Point", "coordinates": [ 118.763549, 32.030685 ] } },
{ "type": "Feature", "properties": { "id": "B0019098VX", "name": "高淳老街", "价格": 0, "分类": "古建筑", "X": 118.8642794, "Y": 31.32169697, "type": "景点", "address": "中山大街138号", "city": "南京市", "aname": "高淳区", "rating": 4.6, "density": 0.128252283, "photo": "http:\/\/store.is.autonavi.com\/showpic\/8c88d86049fe8312af930c15622d28e9" }, "geometry": { "type": "Point", "coordinates": [ 118.864279, 31.321697 ] } },
{ "type": "Feature", "properties": { "id": "B001905179", "name": "乌龙潭公园", "价格": 0, "分类": "自然风光", "X": 118.7612524, "Y": 32.04814913, "type": "景点", "address": "广州路215号(省人民医院对面)", "city": "南京市", "aname": "鼓楼区", "rating": 4.6, "density": 0.950911045, "photo": "http:\/\/store.is.autonavi.com\/showpic\/9f9b7b9bd4114f5436ce129ade49d6f1" }, "geometry": { "type": "Point", "coordinates": [ 118.761252, 32.048149 ] } },
{ "type": "Feature", "properties": { "id": "B00190D1IQ", "name": "天生桥景区", "价格": 20, "分类": "历史故事;自然风光", "X": 118.9831358, "Y": 31.64636621, "type": "景点", "address": "洪蓝街道天生桥路500号", "city": "南京市", "aname": "溧水区", "rating": 4.6, "density": 0.128642142, "photo": "http:\/\/store.is.autonavi.com\/showpic\/3beb85be75e3935c5f9a51c14ee7c25b" }, "geometry": { "type": "Point", "coordinates": [ 118.983136, 31.646366 ] } },
{ "type": "Feature", "properties": { "id": "B0FFGLXR2H", "name": "前湖公园", "价格": 0, "分类": "自然风光", "X": 118.8277989, "Y": 32.0502198, "type": "景点", "address": "石象路7号中山陵园风景区", "city": "南京市", "aname": "玄武区", "rating": 4.6, "density": 0.773086607, "photo": "http:\/\/store.is.autonavi.com\/showpic\/25ecd1680e28e148ab04b08999be12ab" }, "geometry": { "type": "Point", "coordinates": [ 118.827799, 32.05022 ] } },
{ "type": "Feature", "properties": { "id": "B0FFH1ZS2I", "name": "南京城墙集庆门", "价格": 50, "分类": "古建筑", "X": 118.7634199, "Y": 32.02143806, "type": "景点", "address": "平江府路80-1南京夫子庙-秦淮风光带内(西侧)", "city": "南京市", "aname": "秦淮区", "rating": 4.6, "density": 1.081959844, "photo": "http:\/\/store.is.autonavi.com\/showpic\/dbaa724a545e7229c3abd79a1f325054" }, "geometry": { "type": "Point", "coordinates": [ 118.76342, 32.021438 ] } },
{ "type": "Feature", "properties": { "id": "B00190BC0P", "name": "净觉寺", "价格": 0, "分类": "古建筑", "X": 118.7777142, "Y": 32.02605571, "type": "景点", "address": "平江府路80-1南京夫子庙-秦淮风光带内(北侧)", "city": "南京市", "aname": "秦淮区", "rating": 4.6, "density": 1.614627123, "photo": "http:\/\/store.is.autonavi.com\/showpic\/7b90cd91577d1e6641012a4503378c09" }, "geometry": { "type": "Point", "coordinates": [ 118.777714, 32.026056 ] } },
{ "type": "Feature", "properties": { "id": "B001907IVB", "name": "中共代表团梅园新村纪念馆", "价格": 0, "分类": "历史故事;红色文化", "X": 118.7964191, "Y": 32.04445045, "type": "景点", "address": "汉府街18-1", "city": "南京市", "aname": "玄武区", "rating": 4.6, "density": 1.337462306, "photo": "http:\/\/store.is.autonavi.com\/showpic\/26489950db1d4303f7be13f8f23eeb0e" }, "geometry": { "type": "Point", "coordinates": [ 118.796419, 32.04445 ] } },
{ "type": "Feature", "properties": { "id": "B001906ZWH", "name": "南唐二陵", "价格": 22, "分类": "历史故事;文学相关", "X": 118.7334108, "Y": 31.88920133, "type": "景点", "address": "秣陵街道祖堂社区", "city": "南京市", "aname": "江宁区", "rating": 4.6, "density": 0.165213466, "photo": "http:\/\/store.is.autonavi.com\/showpic\/6d1c6fe6fd60d9537bc45c7f62351607" }, "geometry": { "type": "Point", "coordinates": [ 118.733411, 31.889201 ] } },
{ "type": "Feature", "properties": { "id": "B001915DQ7", "name": "南京四方艺术湖区", "价格": 20, "分类": "博物展览;当代文创;自然风光", "X": 118.6392363, "Y": 32.11572871, "type": "展览馆", "address": "珍七路9号", "city": "南京市", "aname": "浦口区", "rating": 4.6, "density": 0.128376991, "photo": "http:\/\/store.is.autonavi.com\/showpic\/78c0b9cfa000a72395b9625011ac1042" }, "geometry": { "type": "Point", "coordinates": [ 118.639236, 32.115729 ] } },
{ "type": "Feature", "properties": { "id": "B0FFF2HCNL", "name": "南京下关历史陈列馆", "价格": 0, "分类": "博物展览;历史故事;古建筑", "X": 118.7319258, "Y": 32.0965658, "type": "展览馆", "address": "江边路21号", "city": "南京市", "aname": "鼓楼区", "rating": 4.6, "density": 0.128399983, "photo": "http:\/\/store.is.autonavi.com\/showpic\/ae403eb206f28e93e09211f439d75a6f" }, "geometry": { "type": "Point", "coordinates": [ 118.731926, 32.096566 ] } },
{ "type": "Feature", "properties": { "id": "B001906KXH", "name": "古瓦官寺", "价格": 0, "分类": "古建筑", "X": 118.7675846, "Y": 32.01970801, "type": "景点", "address": "双塘街道花露北岗12号", "city": "南京市", "aname": "秦淮区", "rating": 4.5, "density": 1.22950387, "photo": "http:\/\/store.is.autonavi.com\/showpic\/7ea5a8679cfcbaeb26b049a49256977a" }, "geometry": { "type": "Point", "coordinates": [ 118.767585, 32.019708 ] } },
{ "type": "Feature", "properties": { "id": "B0HRONIVLK", "name": "甘熙故居", "价格": 20, "分类": "历史故事;文学相关;古建筑", "X": 118.7764437, "Y": 32.02808495, "type": "景点", "address": "中山南路400号熙南里街区南捕厅(升州路口)", "city": "南京市", "aname": "秦淮区", "rating": 4.5, "density": 1.580074787, "photo": "http:\/\/store.is.autonavi.com\/showpic\/3d02241844135758076f7887e37686a2" }, "geometry": { "type": "Point", "coordinates": [ 118.776444, 32.028085 ] } },
{ "type": "Feature", "properties": { "id": "B001911OIV", "name": "清凉山公园", "价格": 0, "分类": "自然风光;古建筑", "X": 118.7554953, "Y": 32.0512641, "type": "景点", "address": "清凉山83号清凉山公园内(南侧)", "city": "南京市", "aname": "鼓楼区", "rating": 4.5, "density": 0.78987956, "photo": "http:\/\/store.is.autonavi.com\/showpic\/d6e06cb3f9204984f2d58c84c16d4f0a" }, "geometry": { "type": "Point", "coordinates": [ 118.755495, 32.051264 ] } },
{ "type": "Feature", "properties": { "id": "B00190BRAW", "name": "桃叶渡", "价格": 0, "分类": "历史故事;文学相关;自然风光;古建筑", "X": 118.7890931, "Y": 32.02499366, "type": "景点", "address": "平江府路80-1南京夫子庙-秦淮风光带(东北角)", "city": "南京市", "aname": "秦淮区", "rating": 4.5, "density": 1.162814856, "photo": "http:\/\/store.is.autonavi.com\/showpic\/a48791acba5335f627a0ac91ea67870f" }, "geometry": { "type": "Point", "coordinates": [ 118.789093, 32.024994 ] } },
{ "type": "Feature", "properties": { "id": "B0FFG835UD", "name": "建初寺", "价格": 0, "分类": "历史故事;古建筑", "X": 118.7770681, "Y": 32.00879312, "type": "景点", "address": "应天大街396号", "city": "南京市", "aname": "秦淮区", "rating": 4.5, "density": 0.92508173, "photo": "http:\/\/store.is.autonavi.com\/showpic\/55091d441358f0c2b2168e2f1d29f34c" }, "geometry": { "type": "Point", "coordinates": [ 118.777068, 32.008793 ] } },
{ "type": "Feature", "properties": { "id": "B0FFFVODB4", "name": "太平门", "价格": 20, "分类": "古建筑", "X": 118.8076152, "Y": 32.06003407, "type": "景点", "address": "龙蟠路", "city": "南京市", "aname": "玄武区", "rating": 4.5, "density": 0.634834647, "photo": "http:\/\/store.is.autonavi.com\/showpic\/3de3a4c17fbfe517705dd2a39767fd93" }, "geometry": { "type": "Point", "coordinates": [ 118.807615, 32.060034 ] } },
{ "type": "Feature", "properties": { "id": "B00190YOD7", "name": "西安门遗址公园", "价格": 0, "分类": "古建筑", "X": 118.8002691, "Y": 32.04101464, "type": "景点", "address": "龙蟠中路202号(西安门地铁站4号口步行130米)", "city": "南京市", "aname": "秦淮区", "rating": 4.5, "density": 1.235282779, "photo": "http:\/\/store.is.autonavi.com\/showpic\/8ac8b7a87fc7d37620cae671b8d19020" }, "geometry": { "type": "Point", "coordinates": [ 118.800269, 32.041015 ] } },
{ "type": "Feature", "properties": { "id": "B00190682O", "name": "中国南京云锦博物馆", "价格": 0, "分类": "博物展览;历史故事", "X": 118.7395931, "Y": 32.03842494, "type": "博物馆", "address": "茶亭东街240号", "city": "南京市", "aname": "建邺区", "rating": 4.5, "density": 0.253739357, "photo": "http:\/\/store.is.autonavi.com\/showpic\/f165067ca302b6d30d34dbea68d73f80" }, "geometry": { "type": "Point", "coordinates": [ 118.739593, 32.038425 ] } },
{ "type": "Feature", "properties": { "id": "B0FFGX7SXE", "name": "金陵凤凰台", "价格": 0, "分类": "历史故事;文学相关;古建筑", "X": 118.666884, "Y": 31.991579, "type": "景点", "address": "江堤路", "city": "南京市", "aname": "建邺区", "rating": 4.4, "density": 0.128492713, "photo": "http:\/\/store.is.autonavi.com\/showpic\/4885ddc5830c6f217f6e00cdee378bbb" }, "geometry": { "type": "Point", "coordinates": [ 118.666884, 31.991579 ] } },
{ "type": "Feature", "properties": { "id": "B00190BC3Q", "name": "南京明故宫遗址公园", "价格": 0, "分类": "历史故事;古建筑", "X": 118.8128161, "Y": 32.04354855, "type": "景点", "address": "中山东路311-3号(明故宫地铁站3号口步行140米)", "city": "南京市", "aname": "玄武区", "rating": 4.4, "density": 0.883015037, "photo": "http:\/\/store.is.autonavi.com\/showpic\/0bf83f1c17d271f93541f994a19d1f93" }, "geometry": { "type": "Point", "coordinates": [ 118.812816, 32.043549 ] } },
{ "type": "Feature", "properties": { "id": "B001907I1C", "name": "郑和公园-郑和纪念馆", "价格": 0, "分类": "历史故事;博物展览", "X": 118.7898515, "Y": 32.03301149, "type": "景点", "address": "太平巷35号(常府街地铁站1号口步行460米)", "city": "南京市", "aname": "秦淮区", "rating": 4.4, "density": 1.361647725, "photo": "http:\/\/store.is.autonavi.com\/showpic\/b5596dde35ddbb66d20005ba307e4b5d" }, "geometry": { "type": "Point", "coordinates": [ 118.789851, 32.033011 ] } },
{ "type": "Feature", "properties": { "id": "B0FFHGNQDE", "name": "金鹰当代艺术空间", "价格": 80, "分类": "博物展览;当代文创", "X": 118.7028925, "Y": 32.00872082, "type": "展览馆", "address": "江东商业文化旅游中心区扬子江大道266号3号楼", "city": "南京市", "aname": "建邺区", "rating": 4.4, "density": 0.17457363, "photo": "http:\/\/store.is.autonavi.com\/showpic\/eadb24378c0cb578de8c1f7e85a217a4" }, "geometry": { "type": "Point", "coordinates": [ 118.702893, 32.008721 ] } },
{ "type": "Feature", "properties": { "id": "B00190AK4V", "name": "求雨山文化名人纪念馆", "价格": 0, "分类": "历史故事;博物展览;文学相关", "X": 118.6139381, "Y": 32.05802393, "type": "景点", "address": "江浦街道雨山路48号", "city": "南京市", "aname": "浦口区", "rating": 4.3, "density": 0.255203962, "photo": "http:\/\/store.is.autonavi.com\/showpic\/6d9693f52610fdbb449b8c4289eb1a77" }, "geometry": { "type": "Point", "coordinates": [ 118.613938, 32.058024 ] } },
{ "type": "Feature", "properties": { "id": "B00190ZIX3", "name": "汤山历史文化展示中心", "价格": 0, "分类": "博物展览;历史故事", "X": 119.042901, "Y": 32.04322124, "type": "展览馆", "address": "美泉路8号", "city": "南京市", "aname": "江宁区", "rating": 4.3, "density": 0.128669769, "photo": null }, "geometry": { "type": "Point", "coordinates": [ 119.042901, 32.043221 ] } },
{ "type": "Feature", "properties": { "id": "B00190CYHW", "name": "北极阁", "价格": 0, "分类": "自然风光;古建筑", "X": 118.785722, "Y": 32.06052233, "type": "景点", "address": "进香河路与北京东路交汇处", "city": "南京市", "aname": "玄武区", "rating": 4.1, "density": 0.955412984, "photo": "http:\/\/store.is.autonavi.com\/showpic\/b68352f8e28c40306fa4c7095c9ea90d" }, "geometry": { "type": "Point", "coordinates": [ 118.785722, 32.060522 ] } },
{ "type": "Feature", "properties": { "id": "B00190ZG8F", "name": "南京市非物质文化遗产馆", "价格": 0, "分类": "博物展览;历史故事;古建筑", "X": 118.7768541, "Y": 32.0283734, "type": "博物馆", "address": "熙南里文化街区(三山街地铁站3号口步行380米)", "city": "南京市", "aname": "秦淮区", "rating": 4.0, "density": 1.589897275, "photo": "http:\/\/store.is.autonavi.com\/showpic\/6ae8655ad9785d3326564e03cc2ea3af" }, "geometry": { "type": "Point", "coordinates": [ 118.776854, 32.028373 ] } },
{ "type": "Feature", "properties": { "id": "B00190B6HW", "name": "中央大学旧址", "价格": 0, "分类": "历史故事;古建筑", "X": 118.788991, "Y": 32.05786192, "type": "景点", "address": "四牌楼2号东南大学四牌楼校区", "city": "南京市", "aname": "玄武区", "rating": 3.9, "density": 1.12341094, "photo": "http:\/\/store.is.autonavi.com\/showpic\/7f363050f3a13f13719660eb1a291577" }, "geometry": { "type": "Point", "coordinates": [ 118.788991, 32.057862 ] } },
{ "type": "Feature", "properties": { "id": "B0FFHH6R14", "name": "南京国际博览中心", "价格": 0, "分类": "博物展览;当代文创", "X": 118.710938, "Y": 31.99523199, "type": "展览馆", "address": "燕山路197附近", "city": "南京市", "aname": "建邺区", "rating": 3.7, "density": 0.184645563, "photo": null }, "geometry": { "type": "Point", "coordinates": [ 118.710938, 31.995232 ] } },
{ "type": "Feature", "properties": { "id": "B0FFF2HQN5", "name": "南京赛珍珠故居", "价格": 0, "分类": "历史故事;古建筑;文学相关", "X": 118.7730866, "Y": 32.05723852, "type": "景点", "address": "中山路249号南京大学鼓楼校区", "city": "南京市", "aname": "鼓楼区", "rating": 3.6, "density": 0.862115502, "photo": "http:\/\/aos-cdn-image.amap.com\/sns\/ugccomment\/b6b41a38-633d-4829-ab25-c7fb478cce21.jpg" }, "geometry": { "type": "Point", "coordinates": [ 118.773087, 32.057239 ] } },
{ "type": "Feature", "properties": { "id": "B0FFKNET9H", "name": "随园", "价格": 0, "分类": "历史故事;文学相关", "X": 118.7635819, "Y": 32.05483968, "type": "景点", "address": "宁海路122号南师大随园校区", "city": "南京市", "aname": "鼓楼区", "rating": 4.0, "density": 0.852417886, "photo": null }, "geometry": { "type": "Point", "coordinates": [ 118.763582, 32.05484 ] } },
{ "type": "Feature", "properties": { "id": "B0FFGPTMUP", "name": "中国第二历史档案馆", "价格": 0, "分类": "博物展览;历史故事", "X": 118.8087561, "Y": 32.04240812, "type": "档案馆", "address": "中山东路309号", "city": "南京市", "aname": "玄武区", "rating": 4.3, "density": 0.988402724, "photo": "http:\/\/store.is.autonavi.com\/showpic\/6ecf80fdade7bd4f026f4a0a2a73af43" }, "geometry": { "type": "Point", "coordinates": [ 118.808756, 32.042408 ] } },
{ "type": "Feature", "properties": { "id": "B00190B67M", "name": "南京图书馆", "价格": 0, "分类": "当代文创;古建筑", "X": 118.7905185, "Y": 32.04401288, "type": "图书馆", "address": "中山东路189号(大行宫地铁站1号口步行140米)", "city": "南京市", "aname": "玄武区", "rating": 4.6, "density": 1.347985029, "photo": "http:\/\/store.is.autonavi.com\/showpic\/bdebbce2bbea7464d7403d1ccf789232" }, "geometry": { "type": "Point", "coordinates": [ 118.790519, 32.044013 ] } }
]
}
